{
"type": "FeatureCollection",
"crs": { "type": "name", "properties": { "name": "urn:ogc:def:crs:OGC:1.3:CRS84" } },
                                                                                                                                  
"features": [
{ "type": "Feature", "properties": { "id": 1, "name": "Union Buildings", "image": "unionbuildings.jpg", "web": "https:\/\/en.wikipedia.org\/wiki\/Union_Buildings" }, "geometry": { "type": "Point", "coordinates": [ 28.211989, -25.739876 ] } },
{ "type": "Feature", "properties": { "id": 2, "name": "Voortrekker Monument", "image": "voortrekker.jpg", "web": "https:\/\/en.wikipedia.org\/wiki\/Voortrekker_Monument" }, "geometry": { "type": "Point", "coordinates": [ 28.175720, -25.775926 ] } },
{ "type": "Feature", "properties": { "id": 3, "name": "Pretoria Zoo", "image": "pretoriazoo.jpg", "web": "https:\/\/en.wikipedia.org\/wiki\/Pretoria_Zoo" }, "geometry": { "type": "Point", "coordinates": [ 28.190386,-25.735766 ] } },
{ "type": "Feature", "properties": { "id": 4, "name": "Church Square", "image": "churchsquare.jpg", "web": "https:\/\/en.wikipedia.org\/wiki\/Church_Square,_Pretoria" }, "geometry": { "type": "Point", "coordinates": [  28.188147, -25.746131 ] } },
{ "type": "Feature", "properties": { "id": 5, "name": "Botanical Garden", "image": "botanicalgardens.jpg", "web": "https:\/\/en.wikipedia.org\/wiki\/Pretoria_National_Botanical_Garden" }, "geometry": { "type": "Point", "coordinates": [ 28.230047, -25.744522 ] } },
{ "type": "Feature", "properties": { "id": 6, "name": "Statue of Nelson Mandela", "image": "statueofmandela.jpg", "web": "https:\/\/en.wikipedia.org\/wiki\/Statue_of_Nelson_Mandela,_Union_Buildings" }, "geometry": { "type": "Point", "coordinates": [  28.211484, -25.741801 ] } },
{ "type": "Feature", "properties": { "id": 7, "name": "Freedom Park", "image": "freedompark.jpg", "web": "https:\/\/en.wikipedia.org\/wiki\/Freedom_Park_(South_Africa)" }, "geometry": { "type": "Point", "coordinates": [ 28.189656, -25.765906 ] } }
]
}
